[{"id":"4e408491ae60920b016ff746","name":"Pop Sickels Stand","contact":{},"location":{"address":"1706 S College Ave","lat":33.40917828,"lng":-111.93519738,"distance":560,"postalCode":"85281","cc":"US","city":"Tempe","state":"AZ","country":"United States","formattedAddress":["1706 S College Ave","Tempe, AZ 85281"]},"categories":[{"id":"4bf58dd8d48988d1c9941735","name":"Ice Cream Shop","pluralName":"Ice Cream Shops","shortName":"Ice Cream","icon":{"prefix":"https://ss3.4sqi.net/img/categories_v2/food/icecream_","suffix":".png"},"primary":true}],"verified":false,"stats":{"checkinsCount":19,"usersCount":4,"tipCount":0},"allowMenuUrlEdit":true,"specials":{"count":0,"items":[]},"hereNow":{"count":0,"summary":"Nobody here","groups":[]},"referralId":"v-1461190755","venueChains":[]},{"id":"52f7427b498e37adc314eccc","name":"I-Hop","contact":{},"location":{"address":"225 E Apache Blvd","lat":33.415468858993584,"lng":-111.9358918807579,"distance":1147,"postalCode":"85281","cc":"US","city":"Tempe","state":"AZ","country":"United States","formattedAddress":["225 E Apache Blvd","Tempe, AZ 85281"]},"categories":[{"id":"4bf58dd8d48988d143941735","name":"Breakfast Spot","pluralName":"Breakfast Spots","shortName":"Breakfast","icon":{"prefix":"https://ss3.4sqi.net/img/categories_v2/food/breakfast_","suffix":".png"},"primary":true}],"verified":false,"stats":{"checkinsCount":5,"usersCount":5,"tipCount":0},"allowMenuUrlEdit":true,"specials":{"count":0,"items":[]},"hereNow":{"count":0,"summary":"Nobody here","groups":[]},"referralId":"v-1461190755","venueChains":[]},{"id":"56f5a22f498ebaf555aa5300","name":"Mucha Lucha Taco Shop","contact":{},"location":{"lat":33.407792,"lng":-111.951002,"distance":1102,"cc":"US","city":"Tempe","state":"AZ","country":"United States","formattedAddress":["Tempe, AZ"]},"categories":[{"id":"4bf58dd8d48988d151941735","name":"Taco Place","pluralName":"Taco Places","shortName":"Tacos","icon":{"prefix":"https://ss3.4sqi.net/img/categories_v2/food/taco_","suffix":".png"},"primary":true}],"verified":false,"stats":{"checkinsCount":11,"usersCount":7,"tipCount":0},"allowMenuUrlEdit":true,"specials":{"count":0,"items":[]},"hereNow":{"count":0,"summary":"Nobody here","groups":[]},"referralId":"v-1461190755","venueChains":[]},{"id":"4b28efecf964a520529624e3","name":"Pizza Hut","contact":{"phone":"4808297988","formattedPhone":"(480) 829-7988","twitter":"pizzahut","facebook":"6053772414","facebookUsername":"pizzahutus","facebookName":"Pizza Hut"},"location":{"address":"808 W Broadway Rd","lat":33.40766496,"lng":-111.9502191,"distance":1028,"postalCode":"85282","cc":"US","city":"Tempe","state":"AZ","country":"United States","formattedAddress":["808 W Broadway Rd","Tempe, AZ 85282"]},"categories":[{"id":"4bf58dd8d48988d1ca941735","name":"Pizza Place","pluralName":"Pizza Places","shortName":"Pizza","icon":{"prefix":"https://ss3.4sqi.net/img/categories_v2/food/pizza_","suffix":".png"},"primary":true}],"verified":true,"stats":{"checkinsCount":183,"usersCount":128,"tipCount":3},"url":"http://www.pizzahut.com/locations/arizona/tempe/026698","hasMenu":true,"menu":{"type":"Menu","label":"Menu","anchor":"View Menu","url":"https://foursquare.com/v/pizza-hut/4b28efecf964a520529624e3/menu","mobileUrl":"https://foursquare.com/v/4b28efecf964a520529624e3/device_menu"},"allowMenuUrlEdit":true,"specials":{"count":0,"items":[]},"storeId":"26698","hereNow":{"count":0,"summary":"Nobody here","groups":[]},"referralId":"v-1461190755","venueChains":[{"id":"556f5631bd6a75a99036aba1"}]},{"id":"54af2966498e972aab967217","name":"Zzeeks Zesty Pizza-Wings","contact":{"phone":"6234555767","formattedPhone":"(623) 455-5767"},"location":{"address":"3139 S Mill Ave","crossStreet":"Southern Ave","lat":33.394482080973546,"lng":-111.93858170470489,"distance":1239,"postalCode":"85282","cc":"US","city":"Tempe","state":"AZ","country":"United States","formattedAddress":["3139 S Mill Ave (Southern Ave)","Tempe, AZ 85282"]},"categories":[{"id":"4bf58dd8d48988d1ca941735","name":"Pizza Place","pluralName":"Pizza Places","shortName":"Pizza","icon":{"prefix":"https://ss3.4sqi.net/img/categories_v2/food/pizza_","suffix":".png"},"primary":true}],"verified":false,"stats":{"checkinsCount":39,"usersCount":21,"tipCount":1},"allowMenuUrlEdit":true,"specials":{"count":0,"items":[]},"hereNow":{"count":0,"summary":"Nobody here","groups":[]},"referralId":"v-1461190755","venueChains":[]},{"id":"5345a93b498eaeea25fe9e26","name":"Burger Rush","contact":{"phone":"4809664000","formattedPhone":"(480) 966-4000"},"location":{"address":"790 W Broadway Rd","crossStreet":"Hardy","lat":33.40756894276993,"lng":-111.9496087969937,"distance":970,"postalCode":"85282","cc":"US","city":"Tempe","state":"AZ","country":"United States","formattedAddress":["790 W Broadway Rd (Hardy)","Tempe, AZ 85282"]},"categories":[{"id":"4bf58dd8d48988d16c941735","name":"Burger Joint","pluralName":"Burger Joints","shortName":"Burgers","icon":{"prefix":"https://ss3.4sqi.net/img/categories_v2/food/burger_","suffix":".png"},"primary":true}],"verified":false,"stats":{"checkinsCount":139,"usersCount":84,"tipCount":5},"hasMenu":true,"menu":{"type":"Menu","label":"Menu","anchor":"View Menu","url":"https://foursquare.com/v/burger-rush/5345a93b498eaeea25fe9e26/menu","mobileUrl":"https://foursquare.com/v/5345a93b498eaeea25fe9e26/device_menu"},"allowMenuUrlEdit":true,"specials":{"count":0,"items":[]},"hereNow":{"count":0,"summary":"Nobody here","groups":[]},"referralId":"v-1461190755","venueChains":[]},{"id":"4f32980719836c91c7e6fd21","name":"Food Source International","contact":{"phone":"4808290886","formattedPhone":"(480) 829-0886"},"location":{"address":"2625 S Roosevelt St","lat":33.400853,"lng":-111.947805,"distance":939,"postalCode":"85282","cc":"US","city":"Tempe","state":"AZ","country":"United States","formattedAddress":["2625 S Roosevelt St","Tempe, AZ 85282"]},"categories":[{"id":"4bf58dd8d48988d16a941735","name":"Bakery","pluralName":"Bakeries","shortName":"Bakery","icon":{"prefix":"https://ss3.4sqi.net/img/categories_v2/food/bakery_","suffix":".png"},"primary":true}],"verified":false,"stats":{"checkinsCount":8,"usersCount":4,"tipCount":0},"allowMenuUrlEdit":true,"specials":{"count":0,"items":[]},"hereNow":{"count":0,"summary":"Nobody here","groups":[]},"referralId":"v-1461190755","venueChains":[]},{"id":"4c150ec67f7f2d7fdac8e168","name":"Taqueria","contact":{},"location":{"address":"818 e Broadway","crossStreet":"suite 106","lat":33.410624999999996,"lng":-111.94215277777778,"distance":614,"postalCode":"85281","cc":"US","city":"Tempe","state":"AZ","country":"United States","formattedAddress":["818 e Broadway (suite 106)","Tempe, AZ 85281"]},"categories":[{"id":"4bf58dd8d48988d1c1941735","name":"Mexican Restaurant","pluralName":"Mexican Restaurants","shortName":"Mexican","icon":{"prefix":"https://ss3.4sqi.net/img/categories_v2/food/mexican_","suffix":".png"},"primary":true}],"verified":false,"stats":{"checkinsCount":3,"usersCount":3,"tipCount":0},"allowMenuUrlEdit":true,"specials":{"count":0,"items":[]},"hereNow":{"count":0,"summary":"Nobody here","groups":[]},"referralId":"v-1461190755","venueChains":[]},{"id":"4f4416a319836ed0019238c2","name":"Black Angus Steakhouse","contact":{"phone":"6029689026","formattedPhone":"(602) 968-9026"},"location":{"address":"507 W Broadway Rd","lat":33.407371,"lng":-111.946269,"distance":664,"postalCode":"85282","cc":"US","city":"Tempe","state":"AZ","country":"United States","formattedAddress":["507 W Broadway Rd","Tempe, AZ 85282"]},"categories":[{"id":"4bf58dd8d48988d1cc941735","name":"Steakhouse","pluralName":"Steakhouses","shortName":"Steakhouse","icon":{"prefix":"https://ss3.4sqi.net/img/categories_v2/food/steakhouse_","suffix":".png"},"primary":true}],"verified":false,"stats":{"checkinsCount":1,"usersCount":1,"tipCount":0},"hasMenu":true,"menu":{"type":"Menu","label":"Menu","anchor":"View Menu","url":"https://foursquare.com/v/black-angus-steakhouse/4f4416a319836ed0019238c2/menu","mobileUrl":"https://foursquare.com/v/4f4416a319836ed0019238c2/device_menu"},"allowMenuUrlEdit":true,"specials":{"count":0,"items":[]},"hereNow":{"count":0,"summary":"Nobody here","groups":[]},"referralId":"v-1461190755","venueChains":[]},{"id":"4dc98cb8b0fb5d09603a39ba","name":"Steamie Wienie","contact":{},"location":{"address":"601-725 W Alameda Dr","lat":33.398870219444824,"lng":-111.94822895684177,"distance":1108,"postalCode":"85282","cc":"US","city":"Tempe","state":"AZ","country":"United States","formattedAddress":["601-725 W Alameda Dr","Tempe, AZ 85282"]},"categories":[{"id":"4bf58dd8d48988d1cb941735","name":"Food Truck","pluralName":"Food Trucks","shortName":"Food Truck","icon":{"prefix":"https://ss3.4sqi.net/img/categories_v2/food/streetfood_","suffix":".png"},"primary":true}],"verified":false,"stats":{"checkinsCount":5,"usersCount":3,"tipCount":0},"allowMenuUrlEdit":true,"specials":{"count":0,"items":[]},"hereNow":{"count":0,"summary":"Nobody here","groups":[]},"referralId":"v-1461190755","venueChains":[]},{"id":"4d996c7561a3a1cde741e442","name":"Best A Floor 2 Kitchen","contact":{},"location":{"lat":33.415878,"lng":-111.936173,"distance":1184,"cc":"US","state":"Arizona","country":"United States","formattedAddress":["Arizona"]},"categories":[{"id":"4bf58dd8d48988d147941735","name":"Diner","pluralName":"Diners","shortName":"Diner","icon":{"prefix":"https://ss3.4sqi.net/img/categories_v2/food/diner_","suffix":".png"},"primary":true}],"verified":false,"stats":{"checkinsCount":1,"usersCount":1,"tipCount":0},"allowMenuUrlEdit":true,"specials":{"count":0,"items":[]},"hereNow":{"count":0,"summary":"Nobody here","groups":[]},"referralId":"v-1461190755","venueChains":[]},{"id":"4f3276c719836c91c7da54e9","name":"A2O Foodservice Design and Consulting","contact":{"phone":"4804490880","formattedPhone":"(480) 449-0880"},"location":{"address":"315 E Solana Dr","lat":33.408431,"lng":-111.933315,"distance":650,"postalCode":"85281","cc":"US","city":"Tempe","state":"AZ","country":"United States","formattedAddress":["315 E Solana Dr","Tempe, AZ 85281"]},"categories":[{"id":"4d4b7105d754a06374d81259","name":"Food","pluralName":"Food","shortName":"Food","icon":{"prefix":"https://ss3.4sqi.net/img/categories_v2/food/default_","suffix":".png"},"primary":true}],"verified":false,"stats":{"checkinsCount":2,"usersCount":1,"tipCount":0},"allowMenuUrlEdit":true,"specials":{"count":0,"items":[]},"hereNow":{"count":0,"summary":"Nobody here","groups":[]},"referralId":"v-1461190755","venueChains":[]},{"id":"4f433b3519834bc91f556f74","name":"True World Foods","contact":{"phone":"4803778783","formattedPhone":"(480) 377-8783"},"location":{"address":"835 W 22nd St","lat":33.40462,"lng":-111.95123,"distance":1101,"postalCode":"85282","cc":"US","city":"Tempe","state":"AZ","country":"United States","formattedAddress":["835 W 22nd St","Tempe, AZ 85282"]},"categories":[{"id":"4d4b7105d754a06374d81259","name":"Food","pluralName":"Food","shortName":"Food","icon":{"prefix":"https://ss3.4sqi.net/img/categories_v2/food/default_","suffix":".png"},"primary":true}],"verified":false,"stats":{"checkinsCount":0,"usersCount":0,"tipCount":0},"allowMenuUrlEdit":true,"specials":{"count":0,"items":[]},"hereNow":{"count":0,"summary":"Nobody here","groups":[]},"referralId":"v-1461190755","venueChains":[]},{"id":"4f3287b319836c91c7e0cc09","name":"Obees Soup Salad Subs","contact":{"phone":"4808942981","formattedPhone":"(480) 894-2981"},"location":{"address":"930 W Broadway Rd","lat":33.40739,"lng":-111.951183,"distance":1109,"postalCode":"85282","cc":"US","city":"Tempe","state":"AZ","country":"United States","formattedAddress":["930 W Broadway Rd","Tempe, AZ 85282"]},"categories":[{"id":"4d4b7105d754a06374d81259","name":"Food","pluralName":"Food","shortName":"Food","icon":{"prefix":"https://ss3.4sqi.net/img/categories_v2/food/default_","suffix":".png"},"primary":true}],"verified":false,"stats":{"checkinsCount":0,"usersCount":0,"tipCount":0},"allowMenuUrlEdit":true,"specials":{"count":0,"items":[]},"hereNow":{"count":0,"summary":"Nobody here","groups":[]},"referralId":"v-1461190755","venueChains":[]},{"id":"4f7357d7e4b0a4b28a67fcb2","name":"Macyos","contact":{},"location":{"lat":33.40922977993224,"lng":-111.93671280126821,"distance":477,"postalCode":"85253","cc":"US","city":"Paradise Valley","state":"AZ","country":"United States","formattedAddress":["Paradise Valley, AZ 85253"]},"categories":[{"id":"4bf58dd8d48988d1c1941735","name":"Mexican Restaurant","pluralName":"Mexican Restaurants","shortName":"Mexican","icon":{"prefix":"https://ss3.4sqi.net/img/categories_v2/food/mexican_","suffix":".png"},"primary":true}],"verified":false,"stats":{"checkinsCount":9,"usersCount":9,"tipCount":0},"allowMenuUrlEdit":true,"specials":{"count":0,"items":[]},"hereNow":{"count":0,"summary":"Nobody here","groups":[]},"referralId":"v-1461190755","venueChains":[]},{"id":"4b8fbfb5f964a520396033e3","name":"Margie's Coffee House","contact":{"phone":"4809669989","formattedPhone":"(480) 966-9989"},"location":{"address":"930 W Broadway Rd #10","lat":33.4074149,"lng":-111.9520066,"distance":1185,"postalCode":"85282","cc":"US","city":"Tempe","state":"AZ","country":"United States","formattedAddress":["930 W Broadway Rd #10","Tempe, AZ 85282"]},"categories":[{"id":"4bf58dd8d48988d1e0931735","name":"Coffee Shop","pluralName":"Coffee Shops","shortName":"Coffee Shop","icon":{"prefix":"https://ss3.4sqi.net/img/categories_v2/food/coffeeshop_","suffix":".png"},"primary":true}],"verified":false,"stats":{"checkinsCount":14,"usersCount":10,"tipCount":0},"allowMenuUrlEdit":true,"specials":{"count":0,"items":[]},"hereNow":{"count":0,"summary":"Nobody here","groups":[]},"referralId":"v-1461190755","venueChains":[]},{"id":"4f321b7419836c91c7b69693","name":"Dimonte's Grille","contact":{"phone":"4805578300","formattedPhone":"(480) 557-8300"},"location":{"address":"818 W Broadway Rd","lat":33.407717,"lng":-111.950386,"distance":1044,"postalCode":"85282","cc":"US","city":"Tempe","state":"AZ","country":"United States","formattedAddress":["818 W Broadway Rd","Tempe, AZ 85282"]},"categories":[{"id":"4d4b7105d754a06374d81259","name":"Food","pluralName":"Food","shortName":"Food","icon":{"prefix":"https://ss3.4sqi.net/img/categories_v2/food/default_","suffix":".png"},"primary":true}],"verified":false,"stats":{"checkinsCount":1,"usersCount":1,"tipCount":0},"hasMenu":true,"menu":{"type":"Menu","label":"Menu","anchor":"View Menu","url":"https://foursquare.com/v/dimontes-grille/4f321b7419836c91c7b69693/menu","mobileUrl":"https://foursquare.com/v/4f321b7419836c91c7b69693/device_menu"},"allowMenuUrlEdit":true,"specials":{"count":0,"items":[]},"hereNow":{"count":0,"summary":"Nobody here","groups":[]},"referralId":"v-1461190755","venueChains":[]},{"id":"4f2c4549121db9783bd392ab","name":"Zen's Cafe - Tempe","contact":{"phone":"4809681758","formattedPhone":"(480) 968-1758"},"location":{"address":"19 E Broadway Rd","crossStreet":"S/E Corner of Mill Ave & Broadway Rd","lat":33.40761494717897,"lng":-111.93949341773987,"distance":225,"postalCode":"85282","cc":"US","city":"Tempe","state":"AZ","country":"United States","formattedAddress":["19 E Broadway Rd (S/E Corner of Mill Ave & Broadway Rd)","Tempe, AZ 85282"]},"categories":[{"id":"4bf58dd8d48988d147941735","name":"Diner","pluralName":"Diners","shortName":"Diner","icon":{"prefix":"https://ss3.4sqi.net/img/categories_v2/food/diner_","suffix":".png"},"primary":true}],"verified":false,"stats":{"checkinsCount":6,"usersCount":6,"tipCount":0},"allowMenuUrlEdit":true,"specials":{"count":0,"items":[]},"hereNow":{"count":0,"summary":"Nobody here","groups":[]},"referralId":"v-1461190755","venueChains":[]},{"id":"4d5a2c4335966dcb22b45d28","name":"Pasty House","contact":{},"location":{"address":"666 S Iain Dr.","lat":33.4138,"lng":-111.944095,"distance":1010,"cc":"US","city":"Tempe","state":"AZ","country":"United States","formattedAddress":["666 S Iain Dr.","Tempe, AZ"]},"categories":[{"id":"4bf58dd8d48988d1bc941735","name":"Cupcake Shop","pluralName":"Cupcake Shops","shortName":"Cupcakes","icon":{"prefix":"https://ss3.4sqi.net/img/categories_v2/food/cupcakes_","suffix":".png"},"primary":true}],"verified":false,"stats":{"checkinsCount":59,"usersCount":6,"tipCount":0},"allowMenuUrlEdit":true,"specials":{"count":0,"items":[]},"hereNow":{"count":0,"summary":"Nobody here","groups":[]},"referralId":"v-1461190755","venueChains":[]}]