[{"id":"4c0367f8310fc9b6eee9c561","name":"Scottsdale, AZ","contact":{"twitter":"scottsdaleazgov"},"location":{"lat":33.50926780249967,"lng":-111.89916372299194,"cc":"US","state":"Arizona","country":"United States","formattedAddress":["Arizona","United States"]},"categories":[{"id":"50aa9e094b90af0d42d5de0d","name":"City","pluralName":"Cities","shortName":"City","icon":{"prefix":"https://ss3.4sqi.net/img/categories_v2/parks_outdoors/neighborhood_","suffix":".png"},"primary":true}],"verified":false,"stats":{"checkinsCount":14705,"usersCount":3337,"tipCount":12},"url":"http://www.scottsdaleaz.gov","specials":{"count":0,"items":[]},"hereNow":{"count":1,"summary":"One other person is here","groups":[{"type":"others","name":"Other people here","count":1,"items":[]}]},"referralId":"v-1462381830","venueChains":[]},{"id":"4d10dba77177b1f753fd5322","name":"Our Lady of Perpetual Help Church","contact":{"phone":"4809474331","formattedPhone":"(480) 947-4331"},"location":{"address":"7655 E Main St","crossStreet":"at N Miller Rd","lat":33.49259119909514,"lng":-111.91678941598316,"postalCode":"85251","cc":"US","city":"Scottsdale","state":"AZ","country":"United States","formattedAddress":["7655 E Main St (at N Miller Rd)","Scottsdale, AZ 85251","United States"]},"categories":[{"id":"4bf58dd8d48988d132941735","name":"Church","pluralName":"Churches","shortName":"Church","icon":{"prefix":"https://ss3.4sqi.net/img/categories_v2/building/religious_church_","suffix":".png"},"primary":true}],"verified":false,"stats":{"checkinsCount":734,"usersCount":175,"tipCount":1},"specials":{"count":0,"items":[]},"hereNow":{"count":0,"summary":"Nobody here","groups":[]},"referralId":"v-1462381830","venueChains":[]},{"id":"4d10dda8a3d9721e80b4d7fd","name":"Our Lady of Perpetual Help School","contact":{"phone":"4808743720","formattedPhone":"(480) 874-3720","twitter":"olph"},"location":{"address":"3801 N Miller Rd","crossStreet":"at E 2nd St","lat":33.49146409558752,"lng":-111.9172203540802,"postalCode":"85251","cc":"US","city":"Scottsdale","state":"AZ","country":"United States","formattedAddress":["3801 N Miller Rd (at E 2nd St)","Scottsdale, AZ 85251","United States"]},"categories":[{"id":"4bf58dd8d48988d13b941735","name":"School","pluralName":"Schools","shortName":"School","icon":{"prefix":"https://ss3.4sqi.net/img/categories_v2/building/school_","suffix":".png"},"primary":true}],"verified":false,"stats":{"checkinsCount":1027,"usersCount":84,"tipCount":0},"specials":{"count":0,"items":[]},"hereNow":{"count":0,"summary":"Nobody here","groups":[]},"referralId":"v-1462381830","venueChains":[]},{"id":"55ec74e9498e74a5bf07c64b","name":"Orangetheory Fitness Old Town","contact":{"phone":"4804052683","formattedPhone":"(480) 405-2683"},"location":{"address":"7620 E Indian School Rd #107","lat":33.495942139529724,"lng":-111.91694661435453,"postalCode":"85251","cc":"US","city":"Scottsdale","state":"AZ","country":"United States","formattedAddress":["7620 E Indian School Rd #107","Scottsdale, AZ 85251","United States"]},"categories":[{"id":"4bf58dd8d48988d175941735","name":"Gym / Fitness Center","pluralName":"Gyms or Fitness Centers","shortName":"Gym / Fitness","icon":{"prefix":"https://ss3.4sqi.net/img/categories_v2/building/gym_","suffix":".png"},"primary":true}],"verified":false,"stats":{"checkinsCount":210,"usersCount":15,"tipCount":0},"allowMenuUrlEdit":true,"specials":{"count":0,"items":[]},"hereNow":{"count":0,"summary":"Nobody here","groups":[]},"referralId":"v-1462381830","venueChains":[]},{"id":"4c3789b8ae2da5930211ffc5","name":"Diamondback Drugs","contact":{"phone":"4809462223","formattedPhone":"(480) 946-2223","twitter":"diamondbackdrug","facebook":"117704608250128","facebookUsername":"DiamondbackDrugs","facebookName":"Diamondback Drugs"},"location":{"address":"7631 E Indian School Rd","crossStreet":"Miller Rd & Indian School Rd","lat":33.494345144712064,"lng":-111.91645860671997,"postalCode":"85251","cc":"US","city":"Scottsdale","state":"AZ","country":"United States","formattedAddress":["7631 E Indian School Rd (Miller Rd & Indian School Rd)","Scottsdale, AZ 85251","United States"]},"categories":[{"id":"4bf58dd8d48988d10f951735","name":"Drugstore / Pharmacy","pluralName":"Pharmacies","shortName":"Pharmacy","icon":{"prefix":"https://ss3.4sqi.net/img/categories_v2/shops/pharmacy_","suffix":".png"},"primary":true}],"verified":true,"stats":{"checkinsCount":597,"usersCount":119,"tipCount":0},"url":"http://www.diamondbackdrugs.com","allowMenuUrlEdit":true,"specials":{"count":0,"items":[]},"venuePage":{"id":"41022140"},"storeId":"","hereNow":{"count":0,"summary":"Nobody here","groups":[]},"referralId":"v-1462381830","venueChains":[]},{"id":"4c181ef2838020a114c8e361","name":"Bikram Yoga Institute","contact":{},"location":{"crossStreet":"Indian School & Miller","lat":33.49646375159089,"lng":-111.91610240080274,"postalCode":"85257","cc":"US","city":"Scottsdale","state":"AZ","country":"United States","formattedAddress":["Scottsdale, AZ 85257","United States"]},"categories":[{"id":"4bf58dd8d48988d102941735","name":"Yoga Studio","pluralName":"Yoga Studios","shortName":"Yoga Studio","icon":{"prefix":"https://ss3.4sqi.net/img/categories_v2/shops/gym_yogastudio_","suffix":".png"},"primary":true}],"verified":false,"stats":{"checkinsCount":1021,"usersCount":162,"tipCount":14},"allowMenuUrlEdit":true,"specials":{"count":0,"items":[]},"hereNow":{"count":0,"summary":"Nobody here","groups":[]},"referralId":"v-1462381830","venueChains":[]},{"id":"4f542551e4b03be364d7c828","name":"Recreate Consignment","contact":{},"location":{"address":"101 N Miller Ave","lat":33.493921,"lng":-111.917484,"postalCode":"85251","cc":"US","city":"Scottsdale","state":"AZ","country":"United States","formattedAddress":["101 N Miller Ave","Scottsdale, AZ 85251","United States"]},"categories":[],"verified":false,"stats":{"checkinsCount":2,"usersCount":2,"tipCount":0},"specials":{"count":0,"items":[]},"hereNow":{"count":0,"summary":"Nobody here","groups":[]},"referralId":"v-1462381830","venueChains":[]},{"id":"4c59e863d3aee21e876b6955","name":"Messingers Indian School","contact":{},"location":{"address":"7601 E Indian School Rd","lat":33.494408,"lng":-111.9168,"postalCode":"85251","cc":"US","city":"Scottsdale","state":"AZ","country":"United States","formattedAddress":["7601 E Indian School Rd","Scottsdale, AZ 85251","United States"]},"categories":[{"id":"4bf58dd8d48988d1ff941735","name":"Miscellaneous Shop","pluralName":"Miscellaneous Shops","shortName":"Shop","icon":{"prefix":"https://ss3.4sqi.net/img/categories_v2/shops/default_","suffix":".png"},"primary":true}],"verified":false,"stats":{"checkinsCount":39,"usersCount":30,"tipCount":0},"allowMenuUrlEdit":true,"specials":{"count":0,"items":[]},"hereNow":{"count":0,"summary":"Nobody here","groups":[]},"referralId":"v-1462381830","venueChains":[]},{"id":"51652f90e4b090d0528f1876","name":"Rescon Properties","contact":{},"location":{"lat":33.49428446219012,"lng":-111.917464786718,"cc":"US","city":"Scottsdale","state":"AZ","country":"United States","formattedAddress":["Scottsdale, AZ","United States"]},"categories":[{"id":"4bf58dd8d48988d130941735","name":"Building","pluralName":"Buildings","shortName":"Building","icon":{"prefix":"https://ss3.4sqi.net/img/categories_v2/building/default_","suffix":".png"},"primary":true}],"verified":false,"stats":{"checkinsCount":4,"usersCount":1,"tipCount":0},"specials":{"count":0,"items":[]},"hereNow":{"count":0,"summary":"Nobody here","groups":[]},"referralId":"v-1462381830","venueChains":[]},{"id":"50dfe55ff31ce2a8a4ff22fe","name":"Arizona Airbrush Studio","contact":{"phone":"4808748311","formattedPhone":"(480) 874-8311","twitter":"arizonaairbrush"},"location":{"address":"3920 N. Miller Rd. Suite 104 Scottsdale AZ 85251","crossStreet":"Miller Rd just south of Indian School Rd","lat":33.493199894427576,"lng":-111.917724609375,"postalCode":"85251","cc":"US","city":"Scottsdale","state":"AZ","country":"United States","formattedAddress":["3920 N. Miller Rd. Suite 104 Scottsdale AZ 85251 (Miller Rd just south of Indian School Rd)","Scottsdale, AZ 85251","United States"]},"categories":[{"id":"4d1cf8421a97d635ce361c31","name":"Tanning Salon","pluralName":"Tanning Salons","shortName":"Tanning Salon","icon":{"prefix":"https://ss3.4sqi.net/img/categories_v2/shops/tanning_salon_","suffix":".png"},"primary":true}],"verified":true,"stats":{"checkinsCount":105,"usersCount":22,"tipCount":3},"url":"http://www.arizonaairbrushstudio.com","allowMenuUrlEdit":true,"specials":{"count":1,"items":[{"id":"54137a36498ee54417bd18f2","type":"frequency","message":"$10 off your customized airbrush tan","photo":{"id":"54137a3611d297991d7fefc8","createdAt":1410562614,"prefix":"https://irs0.4sqi.net/img/general/","suffix":"/45171299_OP-ErZyVm3QkAaNWl2eDkdl3ga6KiJjXpyqqBDSmdJQ.jpg","width":736,"height":1103},"description":"","finePrint":"new clients ONLY","unlocked":true,"icon":"default","title":"Special","state":"unlocked","provider":"foursquare","redemption":"webview","interaction":{"entryUrl":"https://foursquare.com/device/specials/54137a36498ee54417bd18f2?venueId=50dfe55ff31ce2a8a4ff22fe"},"page":{"id":"45171299","firstName":"Arizona Airbrush Studio","gender":"none","photo":{"prefix":"https://irs0.4sqi.net/img/user/","suffix":"/45171299-DXATYRJHQQNWIX2X.jpg"},"type":"venuePage","venue":{"id":"50dfe55ff31ce2a8a4ff22fe"},"tips":{"count":5},"lists":{"groups":[{"type":"created","count":3,"items":[]}]},"homeCity":"Scottsdale, AZ","bio":"","contact":{"twitter":"arizonaairbrush"}}}]},"venuePage":{"id":"45171299"},"storeId":"","hereNow":{"count":0,"summary":"Nobody here","groups":[]},"referralId":"v-1462381830","venueChains":[]},{"id":"4fa59947e4b0fd4c3f298359","name":"Regal Rags","contact":{},"location":{"lat":33.4937,"lng":-111.917794,"postalCode":"85251","cc":"US","city":"Scottsdale","state":"AZ","country":"United States","formattedAddress":["Scottsdale, AZ 85251","United States"]},"categories":[{"id":"4bf58dd8d48988d108951735","name":"Women's Store","pluralName":"Women's Stores","shortName":"Women's Store","icon":{"prefix":"https://ss3.4sqi.net/img/categories_v2/shops/apparel_women_","suffix":".png"},"primary":true}],"verified":false,"stats":{"checkinsCount":6,"usersCount":6,"tipCount":0},"allowMenuUrlEdit":true,"specials":{"count":0,"items":[]},"hereNow":{"count":0,"summary":"Nobody here","groups":[]},"referralId":"v-1462381830","venueChains":[]},{"id":"4eef95cca69d8afe6d6cad43","name":"Messinger Mortuaries","contact":{"phone":"4809459521","formattedPhone":"(480) 945-9521"},"location":{"address":"7601 E Indian School Rd","crossStreet":"at N Miller Rd","lat":33.49454116502049,"lng":-111.91670208355183,"postalCode":"85251","cc":"US","city":"Scottsdale","state":"AZ","country":"United States","formattedAddress":["7601 E Indian School Rd (at N Miller Rd)","Scottsdale, AZ 85251","United States"]},"categories":[{"id":"4bf58dd8d48988d15c941735","name":"Cemetery","pluralName":"Cemeteries","shortName":"Cemetery","icon":{"prefix":"https://ss3.4sqi.net/img/categories_v2/parks_outdoors/cemetery_","suffix":".png"},"primary":true}],"verified":false,"stats":{"checkinsCount":47,"usersCount":41,"tipCount":0},"url":"http://www.messingermortuary.com","specials":{"count":0,"items":[]},"hereNow":{"count":0,"summary":"Nobody here","groups":[]},"referralId":"v-1462381830","venueChains":[]},{"id":"4d80f6738edaa14388bbf939","name":"Downtown Scottsdale Hair & Nails","contact":{},"location":{"lat":33.493616,"lng":-111.91773095,"cc":"US","state":"Arizona","country":"United States","formattedAddress":["Arizona","United States"]},"categories":[{"id":"4bf58dd8d48988d110951735","name":"Salon / Barbershop","pluralName":"Salons / Barbershops","shortName":"Salon / Barbershop","icon":{"prefix":"https://ss3.4sqi.net/img/categories_v2/shops/salon_barber_","suffix":".png"},"primary":true}],"verified":false,"stats":{"checkinsCount":98,"usersCount":19,"tipCount":2},"hasMenu":true,"menu":{"type":"Products","label":"Products","anchor":"View Products","url":"https://foursquare.com/v/downtown-scottsdale-hair--nails/4d80f6738edaa14388bbf939/menu","mobileUrl":"https://foursquare.com/v/4d80f6738edaa14388bbf939/device_menu"},"allowMenuUrlEdit":true,"specials":{"count":0,"items":[]},"hereNow":{"count":0,"summary":"Nobody here","groups":[]},"referralId":"v-1462381830","venueChains":[]},{"id":"4e2498cbc65b2b5e356611bd","name":"Dr. O'Leary","contact":{},"location":{"lat":33.4926726,"lng":-111.916643,"postalCode":"85251","cc":"US","city":"Scottsdale","state":"AZ","country":"United States","formattedAddress":["Scottsdale, AZ 85251","United States"]},"categories":[],"verified":false,"stats":{"checkinsCount":1,"usersCount":1,"tipCount":0},"specials":{"count":0,"items":[]},"hereNow":{"count":0,"summary":"Nobody here","groups":[]},"referralId":"v-1462381830","venueChains":[]},{"id":"5237c6e493cdcf2db2681680","name":"ColorURed Studio","contact":{"phone":"4804401487","formattedPhone":"(480) 440-1487","twitter":"colorured"},"location":{"address":"3940 N Miller Rd","crossStreet":"N Reddell Ave","lat":33.493707653747144,"lng":-111.91773265600204,"postalCode":"85251","cc":"US","city":"Scottsdale","state":"AZ","country":"United States","formattedAddress":["3940 N Miller Rd (N Reddell Ave)","Scottsdale, AZ 85251","United States"]},"categories":[{"id":"4bf58dd8d48988d110951735","name":"Salon / Barbershop","pluralName":"Salons / Barbershops","shortName":"Salon / Barbershop","icon":{"prefix":"https://ss3.4sqi.net/img/categories_v2/shops/salon_barber_","suffix":".png"},"primary":true}],"verified":false,"stats":{"checkinsCount":28,"usersCount":2,"tipCount":1},"url":"http://www.colorured.com","allowMenuUrlEdit":true,"specials":{"count":0,"items":[]},"hereNow":{"count":0,"summary":"Nobody here","groups":[]},"referralId":"v-1462381830","venueChains":[]},{"id":"4f2b4459e4b0f215a4935605","name":"Mane Event, Scottsdale","contact":{},"location":{"address":"3920 N Miller Rd","lat":33.493244,"lng":-111.917775,"postalCode":"85251","cc":"US","city":"Scottsdale","state":"AZ","country":"United States","formattedAddress":["3920 N Miller Rd","Scottsdale, AZ 85251","United States"]},"categories":[{"id":"4bf58dd8d48988d110951735","name":"Salon / Barbershop","pluralName":"Salons / Barbershops","shortName":"Salon / Barbershop","icon":{"prefix":"https://ss3.4sqi.net/img/categories_v2/shops/salon_barber_","suffix":".png"},"primary":true}],"verified":false,"stats":{"checkinsCount":93,"usersCount":2,"tipCount":0},"allowMenuUrlEdit":true,"specials":{"count":0,"items":[]},"hereNow":{"count":0,"summary":"Nobody here","groups":[]},"referralId":"v-1462381830","venueChains":[]},{"id":"5183078e498e75ae17aaa7e9","name":"Betterfingers","contact":{},"location":{"lat":33.49319851322661,"lng":-111.91795967037011,"cc":"US","city":"Scottsdale","state":"AZ","country":"United States","formattedAddress":["Scottsdale, AZ","United States"]},"categories":[{"id":"4f04aa0c2fb6e1c99f3db0b8","name":"Nail Salon","pluralName":"Nail Salons","shortName":"Nail Salon","icon":{"prefix":"https://ss3.4sqi.net/img/categories_v2/shops/nailsalon_","suffix":".png"},"primary":true}],"verified":false,"stats":{"checkinsCount":4,"usersCount":1,"tipCount":0},"allowMenuUrlEdit":true,"specials":{"count":0,"items":[]},"hereNow":{"count":0,"summary":"Nobody here","groups":[]},"referralId":"v-1462381830","venueChains":[]},{"id":"52645ef911d22471c2d6a9a8","name":"Messenger Mortuary","contact":{},"location":{"lat":33.494602,"lng":-111.91677,"cc":"US","city":"Scottsdale","state":"AZ","country":"United States","formattedAddress":["Scottsdale, AZ","United States"]},"categories":[{"id":"4f4534884b9074f6e4fb0174","name":"Funeral Home","pluralName":"Funeral Homes","shortName":"Funeral Home","icon":{"prefix":"https://ss3.4sqi.net/img/categories_v2/building/funeralhome_","suffix":".png"},"primary":true}],"verified":false,"stats":{"checkinsCount":1,"usersCount":1,"tipCount":0},"specials":{"count":0,"items":[]},"hereNow":{"count":0,"summary":"Nobody here","groups":[]},"referralId":"v-1462381830","venueChains":[]},{"id":"4ed19c3fd3e3521ce73018e3","name":"The DeViltry Dollhouse","contact":{"twitter":"deviltrydolls"},"location":{"lat":33.49359357592147,"lng":-111.91789627075195,"postalCode":"85251","cc":"US","city":"Scottsdale","state":"AZ","country":"United States","formattedAddress":["Scottsdale, AZ 85251","United States"]},"categories":[{"id":"4d954b06a243a5684965b473","name":"Residential Building (Apartment / Condo)","pluralName":"Residential Buildings (Apartments / Condos)","shortName":"Residential","icon":{"prefix":"https://ss3.4sqi.net/img/categories_v2/building/apartment_","suffix":".png"},"primary":true}],"verified":false,"stats":{"checkinsCount":19,"usersCount":5,"tipCount":0},"allowMenuUrlEdit":true,"specials":{"count":0,"items":[]},"hereNow":{"count":0,"summary":"Nobody here","groups":[]},"referralId":"v-1462381830","venueChains":[]},{"id":"4c5a1dfbd3aee21ef91a6a55","name":"Scottsdale Cat Clinic","contact":{},"location":{"address":"4002 N Miller Rd Ste 100","lat":33.49427282810211,"lng":-111.917897,"postalCode":"85251","cc":"US","city":"Scottsdale","state":"AZ","country":"United States","formattedAddress":["4002 N Miller Rd Ste 100","Scottsdale, AZ 85251","United States"]},"categories":[{"id":"4d954af4a243a5684765b473","name":"Veterinarian","pluralName":"Veterinarians","shortName":"Veterinarians","icon":{"prefix":"https://ss3.4sqi.net/img/categories_v2/building/medical_veterinarian_","suffix":".png"},"primary":true}],"verified":false,"stats":{"checkinsCount":186,"usersCount":59,"tipCount":2},"specials":{"count":0,"items":[]},"hereNow":{"count":0,"summary":"Nobody here","groups":[]},"referralId":"v-1462381830","venueChains":[]},{"id":"4e5585bd8877f56f33b369ae","name":"Busker Chiropractor","contact":{},"location":{"lat":33.49365055561066,"lng":-111.91792845726013,"cc":"US","state":"Arizona","country":"United States","formattedAddress":["Arizona","United States"]},"categories":[{"id":"52e81612bcbc57f1066b7a3a","name":"Chiropractor","pluralName":"Chiropractors","shortName":"Chiropractors","icon":{"prefix":"https://ss3.4sqi.net/img/categories_v2/building/medical_doctorsoffice_","suffix":".png"},"primary":true}],"verified":false,"stats":{"checkinsCount":13,"usersCount":6,"tipCount":0},"specials":{"count":0,"items":[]},"hereNow":{"count":0,"summary":"Nobody here","groups":[]},"referralId":"v-1462381830","venueChains":[]},{"id":"4e6c35a3814dbfe20e610b59","name":"Prophet Companies","contact":{"phone":"4803994888","formattedPhone":"(480) 399-4888","twitter":"azcreditcard"},"location":{"address":"7411 E 6th Ave Ste 206","crossStreet":"Civic Center","lat":33.49430040865714,"lng":-111.91773533821106,"postalCode":"85251","cc":"US","city":"Scottsdale","state":"AZ","country":"United States","formattedAddress":["7411 E 6th Ave Ste 206 (Civic Center)","Scottsdale, AZ 85251","United States"]},"categories":[{"id":"4bf58dd8d48988d124941735","name":"Office","pluralName":"Offices","shortName":"Office","icon":{"prefix":"https://ss3.4sqi.net/img/categories_v2/building/default_","suffix":".png"},"primary":true}],"verified":false,"stats":{"checkinsCount":230,"usersCount":5,"tipCount":1},"specials":{"count":0,"items":[]},"hereNow":{"count":0,"summary":"Nobody here","groups":[]},"referralId":"v-1462381830","venueChains":[]},{"id":"4e0604c16284d9ee92cc1f5a","name":"PrimeImage Media Office","contact":{},"location":{"address":"4002 N Miller Rd","lat":33.49425673484802,"lng":-111.91784799098969,"postalCode":"85251","cc":"US","city":"Scottsdale","state":"AZ","country":"United States","formattedAddress":["4002 N Miller Rd","Scottsdale, AZ 85251","United States"]},"categories":[{"id":"4bf58dd8d48988d124941735","name":"Office","pluralName":"Offices","shortName":"Office","icon":{"prefix":"https://ss3.4sqi.net/img/categories_v2/building/default_","suffix":".png"},"primary":true}],"verified":false,"stats":{"checkinsCount":1,"usersCount":1,"tipCount":0},"specials":{"count":0,"items":[]},"hereNow":{"count":0,"summary":"Nobody here","groups":[]},"referralId":"v-1462381830","venueChains":[]},{"id":"4d8008fd577eb1f76457a1d3","name":"Singleton Moms","contact":{"phone":"4808185285","formattedPhone":"(480) 818-5285","twitter":"singletonmoms"},"location":{"address":"7579 E Main St","lat":33.492958545684814,"lng":-111.91798725000001,"postalCode":"85251","cc":"US","city":"Scottsdale","state":"AZ","country":"United States","formattedAddress":["7579 E Main St","Scottsdale, AZ 85251","United States"]},"categories":[{"id":"4bf58dd8d48988d124941735","name":"Office","pluralName":"Offices","shortName":"Office","icon":{"prefix":"https://ss3.4sqi.net/img/categories_v2/building/default_","suffix":".png"},"primary":true}],"verified":false,"stats":{"checkinsCount":91,"usersCount":10,"tipCount":0},"specials":{"count":0,"items":[]},"hereNow":{"count":0,"summary":"Nobody here","groups":[]},"referralId":"v-1462381830","venueChains":[]},{"id":"5169e6d4e4b0367195890c20","name":"Prophet B-Ball Court","contact":{},"location":{"address":"4002 N Miller Rd Ste 200 1/2","crossStreet":"Indian School","lat":33.49414923680626,"lng":-111.91777336123805,"postalCode":"85251","cc":"US","city":"Scottsdale","state":"AZ","country":"United States","formattedAddress":["4002 N Miller Rd Ste 200 1/2 (Indian School)","Scottsdale, AZ 85251","United States"]},"categories":[{"id":"4bf58dd8d48988d1e1941735","name":"Basketball Court","pluralName":"Basketball Courts","shortName":"Basketball Court","icon":{"prefix":"https://ss3.4sqi.net/img/categories_v2/parks_outdoors/basketballcourt_","suffix":".png"},"primary":true}],"verified":false,"stats":{"checkinsCount":6,"usersCount":1,"tipCount":0},"specials":{"count":0,"items":[]},"hereNow":{"count":0,"summary":"Nobody here","groups":[]},"referralId":"v-1462381830","venueChains":[]},{"id":"4d5de31714963704a6e6c294","name":"Grandstand World Headquarters","contact":{},"location":{"address":"3940 N Miller Rd","crossStreet":"Indian School","lat":33.493853,"lng":-111.91797828,"postalCode":"85251","cc":"US","city":"Scottsdale","state":"AZ","country":"United States","formattedAddress":["3940 N Miller Rd (Indian School)","Scottsdale, AZ 85251","United States"]},"categories":[{"id":"4bf58dd8d48988d124941735","name":"Office","pluralName":"Offices","shortName":"Office","icon":{"prefix":"https://ss3.4sqi.net/img/categories_v2/building/default_","suffix":".png"},"primary":true}],"verified":false,"stats":{"checkinsCount":6,"usersCount":3,"tipCount":0},"specials":{"count":0,"items":[]},"hereNow":{"count":0,"summary":"Nobody here","groups":[]},"referralId":"v-1462381830","venueChains":[]},{"id":"51ace704498eedc513f9adee","name":"The Brand Consortium PR","contact":{},"location":{"lat":33.492881,"lng":-111.917665,"cc":"US","city":"Scottsdale","state":"AZ","country":"United States","formattedAddress":["Scottsdale, AZ","United States"]},"categories":[{"id":"4bf58dd8d48988d124941735","name":"Office","pluralName":"Offices","shortName":"Office","icon":{"prefix":"https://ss3.4sqi.net/img/categories_v2/building/default_","suffix":".png"},"primary":true}],"verified":false,"stats":{"checkinsCount":1,"usersCount":1,"tipCount":0},"specials":{"count":0,"items":[]},"hereNow":{"count":0,"summary":"Nobody here","groups":[]},"referralId":"v-1462381830","venueChains":[]},{"id":"4d1e5f30dd6a236a7c702638","name":"Grand Stand","contact":{},"location":{"address":"3940 N Miller Rd Suite K","lat":33.493782,"lng":-111.917914,"cc":"US","state":"Arizona","country":"United States","formattedAddress":["3940 N Miller Rd Suite K","Arizona","United States"]},"categories":[],"verified":false,"stats":{"checkinsCount":2,"usersCount":2,"tipCount":0},"specials":{"count":0,"items":[]},"hereNow":{"count":0,"summary":"Nobody here","groups":[]},"referralId":"v-1462381830","venueChains":[]},{"id":"4bf6c26eb1a7a59329a8d65b","name":"AzTeen Magazine","contact":{},"location":{"address":"4026 N Miller Rd","lat":33.494554,"lng":-111.917702,"postalCode":"85251","cc":"US","city":"Scottsdale","state":"AZ","country":"United States","formattedAddress":["4026 N Miller Rd","Scottsdale, AZ 85251","United States"]},"categories":[],"verified":false,"stats":{"checkinsCount":5,"usersCount":3,"tipCount":1},"specials":{"count":0,"items":[]},"hereNow":{"count":0,"summary":"Nobody here","groups":[]},"referralId":"v-1462381830","venueChains":[]},{"id":"4ddef7e1922e8b06accfe4ce","name":"Flora Unique","contact":{"phone":"4805059218","formattedPhone":"(480) 505-9218","twitter":"flora_unique","facebook":"176959062351374","facebookUsername":"FloraUnique","facebookName":"Flora Unique Florist"},"location":{"address":"4032 N Miller Rd Ste 106","crossStreet":"SW corner Miller Rd. & Indian School Rd.","lat":33.4945422,"lng":-111.9177168,"postalCode":"85251","cc":"US","city":"Scottsdale","state":"AZ","country":"United States","formattedAddress":["4032 N Miller Rd Ste 106 (SW corner Miller Rd. & Indian School Rd.)","Scottsdale, AZ 85251","United States"]},"categories":[{"id":"4bf58dd8d48988d11b951735","name":"Flower Shop","pluralName":"Flower Shops","shortName":"Flower Shop","icon":{"prefix":"https://ss3.4sqi.net/img/categories_v2/shops/flowershop_","suffix":".png"},"primary":true}],"verified":true,"stats":{"checkinsCount":9,"usersCount":8,"tipCount":2},"url":"http://www.florauniquescottsdale.com","hasMenu":true,"menu":{"type":"Products","label":"Products","anchor":"View Products","url":"https://foursquare.com/v/flora-unique/4ddef7e1922e8b06accfe4ce/menu","mobileUrl":"https://foursquare.com/v/4ddef7e1922e8b06accfe4ce/device_menu"},"allowMenuUrlEdit":true,"specials":{"count":0,"items":[]},"storeId":"","hereNow":{"count":0,"summary":"Nobody here","groups":[]},"referralId":"v-1462381830","venueChains":[]}]